[
  {
    "id": "00000",
    "name": "寿湯",
    "address": "東京都大田区蒲田３丁目８−６",
    "memo": "丸い湯船が浴室の真ん中にドーン！熱いお湯と強烈な電気風呂が待ってます！",
    "lat": 35.565317473082594,
    "lng": 139.72418169985554
  },
  {
    "id": "00001",
    "name": "観音湯",
    "address": "東京都大田区西糀谷３丁目２４−１６",
    "memo": "糀谷観音堂から近い銭湯ということから観音湯と命名されました。スチームサウナもおすすめ。レトロな感じだけど清潔感があります。",
    "lat": 35.555447492004895,
    "lng": 139.73543090000956
  },
  {
    "id": "00002",
    "name": "LUXURY FLIGHT",
    "address": "東京都大田区羽田空港三丁目3番2号 第一旅客ターミナルビル5階",
    "memo": "フライトシミュレーターを完備して、年齢やレベルに合わせたフライトプランでお好きなところへフライトする事が出来ます。",
    "lat": 35.548079,  
    "lng": 139.784223
  },
  {
    "id": "00003",
    "name": "アルファディア　リムジンサービス",
    "address": "東京都大田区大森南3-8-7 田中コーポ1F",
    "memo": "女子会やバースデー、ウェディング、サプライズの演出などシーンに合わせて最適なリムジンをお選びいただけます。",
    "lat": 35.567594,
    "lng": 139.744027
  },
  {
    "id": "00004",
    "name": "城南島海浜公園",
    "address": "東京都大田区城南島４丁目２−２",
    "memo": "羽田空港に離着陸する飛行機を間近で見られる公園。キャンプ場、ドッグラン、人口砂浜などがある。",
    "lat": 35.582385,
    "lng": 139.783883
  },
  {
    "id": "00005",
    "name": "大森ふるさとの浜辺公園",
    "address": "東京都大田区ふるさとの浜辺公園1番1号",
    "memo": "人工のビーチが整備されていて、レジャー気分を満喫できます。ビーチバレーを楽しめるエリアもあります。",
    "lat": 35.574611,
    "lng": 139.741981
  },
  {
    "id": "000006",
    "name": "穴守稲荷神社",
    "address": "東京都大田区羽田5-2-7",
    "memo": "江戸時代初期に創建されたと伝えられています。祭神は稲荷大神であり商売繁盛や家内安全、交通安全などの守護神として崇められています。",
    "lat": 35.550599,
    "lng": 139.749723
  },
  {
    "id": "00007",
    "name": "昭和のくらし博物館",
    "address": "東京都大田区南久が原2-26-19",
    "memo": "昭和初期の建物と生活の道具をそのまま保存し、当時の暮らしぶりを実感することができます。",
    "lat": 35.575139,
    "lng": 139.685727
  },
  {
    "id": "00008",
    "name": "ウェディア(町工場)",
    "address": "東京都大田区下丸子4-19-20",
    "memo": "水と空気以外プリントできる！クリエイターの思いを実現！プリント体験(参加費無料・定員無し)",
    "lat": 35.57059,
    "lng": 139.681147
  },
  {
    "id": "00009",
    "name": "安久工機(町工場)",
    "address": "東京都大田区下丸子2-25-4",
    "memo": "未来のモノづくりを切り拓く試作開発の最前線。人工心臓パワー体感コーナー。目が見えなくても“描いて触れる”ペン「ラピコ」の体験。",
    "lat": 35.56332,
    "lng": 139.687303
  }
]